[
    {
        "circuit_name":"AVUS",
        "races":1,
        "country":"Germany",
        "lat":52.4806,
        "lng":13.2514,
        "alt":"53",
        "firstRace":1959,
        "lastRace":1959,
        "continent":"Europe"
    },
    {
        "circuit_name":"Adelaide Street Circuit",
        "races":11,
        "country":"Australia",
        "lat":-34.9272,
        "lng":138.617,
        "alt":"58",
        "firstRace":1985,
        "lastRace":1995,
        "continent":"Oceania"
    },
    {
        "circuit_name":"Ain Diab",
        "races":1,
        "country":"Morocco",
        "lat":33.5786,
        "lng":-7.6875,
        "alt":"19",
        "firstRace":1958,
        "lastRace":1958,
        "continent":"Africa"
    },
    {
        "circuit_name":"Aintree",
        "races":5,
        "country":"United Kingdom",
        "lat":53.4769,
        "lng":-2.94056,
        "alt":"20",
        "firstRace":1955,
        "lastRace":1962,
        "continent":"Europe"
    },
    {
        "circuit_name":"Albert Park Grand Prix Circuit",
        "races":26,
        "country":"Australia",
        "lat":-37.8497,
        "lng":144.968,
        "alt":"10",
        "firstRace":1996,
        "lastRace":2023,
        "continent":"Oceania"
    },
    {
        "circuit_name":"Autodromo Enzo e Dino Ferrari",
        "races":30,
        "country":"Italy",
        "lat":44.3439,
        "lng":11.7167,
        "alt":"37",
        "firstRace":1980,
        "lastRace":2022,
        "continent":"Europe"
    },
    {
        "circuit_name":"Autodromo Internazionale del Mugello",
        "races":1,
        "country":"Italy",
        "lat":43.9975,
        "lng":11.3719,
        "alt":"255",
        "firstRace":2020,
        "lastRace":2020,
        "continent":"Europe"
    },
    {
        "circuit_name":"Autodromo Nazionale di Monza",
        "races":72,
        "country":"Italy",
        "lat":45.6156,
        "lng":9.28111,
        "alt":"162",
        "firstRace":1950,
        "lastRace":2022,
        "continent":"Europe"
    },
    {
        "circuit_name":"Aut\u00f3dromo Hermanos Rodr\u00edguez",
        "races":22,
        "country":"Mexico",
        "lat":19.4042,
        "lng":-99.0907,
        "alt":"2227",
        "firstRace":1963,
        "lastRace":2022,
        "continent":"North America"
    },
    {
        "circuit_name":"Aut\u00f3dromo Internacional Nelson Piquet",
        "races":10,
        "country":"Brazil",
        "lat":-22.9756,
        "lng":-43.395,
        "alt":"1126",
        "firstRace":1978,
        "lastRace":1989,
        "continent":"South America"
    },
    {
        "circuit_name":"Aut\u00f3dromo Internacional do Algarve",
        "races":2,
        "country":"Portugal",
        "lat":37.227,
        "lng":-8.6267,
        "alt":"108",
        "firstRace":2020,
        "lastRace":2021,
        "continent":"Europe"
    },
    {
        "circuit_name":"Aut\u00f3dromo Jos\u00e9 Carlos Pace",
        "races":39,
        "country":"Brazil",
        "lat":-23.7036,
        "lng":-46.6997,
        "alt":"785",
        "firstRace":1973,
        "lastRace":2022,
        "continent":"South America"
    },
    {
        "circuit_name":"Aut\u00f3dromo Juan y Oscar G\u00e1lvez",
        "races":20,
        "country":"Argentina",
        "lat":-34.6943,
        "lng":-58.4593,
        "alt":"8",
        "firstRace":1953,
        "lastRace":1998,
        "continent":"South America"
    },
    {
        "circuit_name":"Aut\u00f3dromo do Estoril",
        "races":13,
        "country":"Portugal",
        "lat":38.7506,
        "lng":-9.39417,
        "alt":"130",
        "firstRace":1984,
        "lastRace":1996,
        "continent":"Europe"
    },
    {
        "circuit_name":"Bahrain International Circuit",
        "races":20,
        "country":"Bahrain",
        "lat":26.0325,
        "lng":50.5106,
        "alt":"7",
        "firstRace":2004,
        "lastRace":2023,
        "continent":"Asia"
    },
    {
        "circuit_name":"Baku City Circuit",
        "races":7,
        "country":"Azerbaijan",
        "lat":40.3725,
        "lng":49.8533,
        "alt":"-7",
        "firstRace":2016,
        "lastRace":2023,
        "continent":"Asia"
    },
    {
        "circuit_name":"Brands Hatch",
        "races":14,
        "country":"United Kingdom",
        "lat":51.3569,
        "lng":0.263056,
        "alt":"145",
        "firstRace":1964,
        "lastRace":1986,
        "continent":"Europe"
    },
    {
        "circuit_name":"Buddh International Circuit",
        "races":3,
        "country":"India",
        "lat":28.3487,
        "lng":77.5331,
        "alt":"194",
        "firstRace":2011,
        "lastRace":2013,
        "continent":"Asia"
    },
    {
        "circuit_name":"Charade Circuit",
        "races":4,
        "country":"France",
        "lat":45.7472,
        "lng":3.03889,
        "alt":"790",
        "firstRace":1965,
        "lastRace":1972,
        "continent":"Europe"
    },
    {
        "circuit_name":"Circuit Bremgarten",
        "races":5,
        "country":"Switzerland",
        "lat":46.9589,
        "lng":7.40194,
        "alt":"551",
        "firstRace":1950,
        "lastRace":1954,
        "continent":"Europe"
    },
    {
        "circuit_name":"Circuit Gilles Villeneuve",
        "races":42,
        "country":"Canada",
        "lat":45.5,
        "lng":-73.5228,
        "alt":"13",
        "firstRace":1978,
        "lastRace":2023,
        "continent":"North America"
    },
    {
        "circuit_name":"Circuit Mont-Tremblant",
        "races":2,
        "country":"Canada",
        "lat":46.1877,
        "lng":-74.6099,
        "alt":"214",
        "firstRace":1968,
        "lastRace":1970,
        "continent":"North America"
    },
    {
        "circuit_name":"Circuit Park Zandvoort",
        "races":32,
        "country":"Netherlands",
        "lat":52.3888,
        "lng":4.54092,
        "alt":"6",
        "firstRace":1952,
        "lastRace":2022,
        "continent":"Europe"
    },
    {
        "circuit_name":"Circuit Paul Ricard",
        "races":18,
        "country":"France",
        "lat":43.2506,
        "lng":5.79167,
        "alt":"432",
        "firstRace":1971,
        "lastRace":2022,
        "continent":"Europe"
    },
    {
        "circuit_name":"Circuit de Barcelona-Catalunya",
        "races":33,
        "country":"Spain",
        "lat":41.57,
        "lng":2.26111,
        "alt":"109",
        "firstRace":1991,
        "lastRace":2023,
        "continent":"Europe"
    },
    {
        "circuit_name":"Circuit de Monaco",
        "races":69,
        "country":"Monaco",
        "lat":43.7347,
        "lng":7.42056,
        "alt":"7",
        "firstRace":1950,
        "lastRace":2023,
        "continent":"Europe"
    },
    {
        "circuit_name":"Circuit de Nevers Magny-Cours",
        "races":18,
        "country":"France",
        "lat":46.8642,
        "lng":3.16361,
        "alt":"228",
        "firstRace":1991,
        "lastRace":2008,
        "continent":"Europe"
    },
    {
        "circuit_name":"Circuit de Pedralbes",
        "races":2,
        "country":"Spain",
        "lat":41.3903,
        "lng":2.11667,
        "alt":"85",
        "firstRace":1951,
        "lastRace":1954,
        "continent":"Europe"
    },
    {
        "circuit_name":"Circuit de Spa-Francorchamps",
        "races":56,
        "country":"Belgium",
        "lat":50.4372,
        "lng":5.97139,
        "alt":"401",
        "firstRace":1950,
        "lastRace":2023,
        "continent":"Europe"
    },
    {
        "circuit_name":"Circuit of the Americas",
        "races":10,
        "country":"USA",
        "lat":30.1328,
        "lng":-97.6411,
        "alt":"161",
        "firstRace":2012,
        "lastRace":2022,
        "continent":"North America"
    },
    {
        "circuit_name":"Circuito da Boavista",
        "races":2,
        "country":"Portugal",
        "lat":41.1705,
        "lng":-8.67325,
        "alt":"28",
        "firstRace":1958,
        "lastRace":1960,
        "continent":"Europe"
    },
    {
        "circuit_name":"Circuito de Jerez",
        "races":7,
        "country":"Spain",
        "lat":36.7083,
        "lng":-6.03417,
        "alt":"37",
        "firstRace":1986,
        "lastRace":1997,
        "continent":"Europe"
    },
    {
        "circuit_name":"Detroit Street Circuit",
        "races":7,
        "country":"USA",
        "lat":42.3298,
        "lng":-83.0401,
        "alt":"177",
        "firstRace":1982,
        "lastRace":1988,
        "continent":"North America"
    },
    {
        "circuit_name":"Dijon-Prenois",
        "races":6,
        "country":"France",
        "lat":47.3625,
        "lng":4.89913,
        "alt":"484",
        "firstRace":1974,
        "lastRace":1984,
        "continent":"Europe"
    },
    {
        "circuit_name":"Donington Park",
        "races":1,
        "country":"United Kingdom",
        "lat":52.8306,
        "lng":-1.37528,
        "alt":"88",
        "firstRace":1993,
        "lastRace":1993,
        "continent":"Europe"
    },
    {
        "circuit_name":"Fair Park",
        "races":1,
        "country":"USA",
        "lat":32.7774,
        "lng":-96.7587,
        "alt":"139",
        "firstRace":1984,
        "lastRace":1984,
        "continent":"North America"
    },
    {
        "circuit_name":"Fuji Speedway",
        "races":4,
        "country":"Japan",
        "lat":35.3717,
        "lng":138.927,
        "alt":"583",
        "firstRace":1976,
        "lastRace":2008,
        "continent":"Asia"
    },
    {
        "circuit_name":"Hockenheimring",
        "races":37,
        "country":"Germany",
        "lat":49.3278,
        "lng":8.56583,
        "alt":"103",
        "firstRace":1970,
        "lastRace":2019,
        "continent":"Europe"
    },
    {
        "circuit_name":"Hungaroring",
        "races":38,
        "country":"Hungary",
        "lat":47.5789,
        "lng":19.2486,
        "alt":"264",
        "firstRace":1986,
        "lastRace":2023,
        "continent":"Europe"
    },
    {
        "circuit_name":"Indianapolis Motor Speedway",
        "races":19,
        "country":"USA",
        "lat":39.795,
        "lng":-86.2347,
        "alt":"223",
        "firstRace":1950,
        "lastRace":2007,
        "continent":"North America"
    },
    {
        "circuit_name":"Istanbul Park",
        "races":9,
        "country":"Turkey",
        "lat":40.9517,
        "lng":29.405,
        "alt":"130",
        "firstRace":2005,
        "lastRace":2021,
        "continent":"Asia"
    },
    {
        "circuit_name":"Jarama",
        "races":9,
        "country":"Spain",
        "lat":40.6171,
        "lng":-3.58558,
        "alt":"609",
        "firstRace":1968,
        "lastRace":1981,
        "continent":"Europe"
    },
    {
        "circuit_name":"Jeddah Corniche Circuit",
        "races":3,
        "country":"Saudi Arabia",
        "lat":21.6319,
        "lng":39.1044,
        "alt":"15",
        "firstRace":2021,
        "lastRace":2023,
        "continent":"Asia"
    },
    {
        "circuit_name":"Korean International Circuit",
        "races":4,
        "country":"South Korea",
        "lat":34.7333,
        "lng":126.417,
        "alt":"0",
        "firstRace":2010,
        "lastRace":2013,
        "continent":"Asia"
    },
    {
        "circuit_name":"Kyalami",
        "races":20,
        "country":"South Africa",
        "lat":-25.9894,
        "lng":28.0767,
        "alt":"1460",
        "firstRace":1967,
        "lastRace":1993,
        "continent":"Africa"
    },
    {
        "circuit_name":"Las Vegas Street Circuit",
        "races":2,
        "country":"USA",
        "lat":36.1162,
        "lng":-115.174,
        "alt":"639",
        "firstRace":1981,
        "lastRace":1982,
        "continent":"North America"
    },
    {
        "circuit_name":"Le Mans",
        "races":1,
        "country":"France",
        "lat":47.95,
        "lng":0.224231,
        "alt":"67",
        "firstRace":1967,
        "lastRace":1967,
        "continent":"Europe"
    },
    {
        "circuit_name":"Long Beach",
        "races":8,
        "country":"USA",
        "lat":33.7651,
        "lng":-118.189,
        "alt":"12",
        "firstRace":1976,
        "lastRace":1983,
        "continent":"North America"
    },
    {
        "circuit_name":"Losail International Circuit",
        "races":1,
        "country":"Qatar",
        "lat":25.49,
        "lng":51.4542,
        "alt":null,
        "firstRace":2021,
        "lastRace":2021,
        "continent":"Asia"
    },
    {
        "circuit_name":"Marina Bay Street Circuit",
        "races":13,
        "country":"Singapore",
        "lat":1.2914,
        "lng":103.864,
        "alt":"18",
        "firstRace":2008,
        "lastRace":2022,
        "continent":"Asia"
    },
    {
        "circuit_name":"Miami International Autodrome",
        "races":2,
        "country":"USA",
        "lat":25.9581,
        "lng":-80.2389,
        "alt":null,
        "firstRace":2022,
        "lastRace":2023,
        "continent":"North America"
    },
    {
        "circuit_name":"Monsanto Park Circuit",
        "races":1,
        "country":"Portugal",
        "lat":38.7197,
        "lng":-9.20306,
        "alt":"158",
        "firstRace":1959,
        "lastRace":1959,
        "continent":"Europe"
    },
    {
        "circuit_name":"Montju\u00efc",
        "races":4,
        "country":"Spain",
        "lat":41.3664,
        "lng":2.15167,
        "alt":"79",
        "firstRace":1969,
        "lastRace":1975,
        "continent":"Europe"
    },
    {
        "circuit_name":"Mosport International Raceway",
        "races":8,
        "country":"Canada",
        "lat":44.0481,
        "lng":-78.6756,
        "alt":"332",
        "firstRace":1967,
        "lastRace":1977,
        "continent":"North America"
    },
    {
        "circuit_name":"Nivelles-Baulers",
        "races":2,
        "country":"Belgium",
        "lat":50.6211,
        "lng":4.32694,
        "alt":"139",
        "firstRace":1972,
        "lastRace":1974,
        "continent":"Europe"
    },
    {
        "circuit_name":"N\u00fcrburgring",
        "races":41,
        "country":"Germany",
        "lat":50.3356,
        "lng":6.9475,
        "alt":"578",
        "firstRace":1951,
        "lastRace":2020,
        "continent":"Europe"
    },
    {
        "circuit_name":"Okayama International Circuit",
        "races":2,
        "country":"Japan",
        "lat":34.915,
        "lng":134.221,
        "alt":"266",
        "firstRace":1994,
        "lastRace":1995,
        "continent":"Asia"
    },
    {
        "circuit_name":"Pescara Circuit",
        "races":1,
        "country":"Italy",
        "lat":42.475,
        "lng":14.1508,
        "alt":"129",
        "firstRace":1957,
        "lastRace":1957,
        "continent":"Europe"
    },
    {
        "circuit_name":"Phoenix street circuit",
        "races":3,
        "country":"USA",
        "lat":33.4479,
        "lng":-112.075,
        "alt":"345",
        "firstRace":1989,
        "lastRace":1991,
        "continent":"North America"
    },
    {
        "circuit_name":"Prince George Circuit",
        "races":3,
        "country":"South Africa",
        "lat":-33.0486,
        "lng":27.8736,
        "alt":"15",
        "firstRace":1962,
        "lastRace":1965,
        "continent":"Africa"
    },
    {
        "circuit_name":"Red Bull Ring",
        "races":37,
        "country":"Austria",
        "lat":47.2197,
        "lng":14.7647,
        "alt":"678",
        "firstRace":1970,
        "lastRace":2023,
        "continent":"Europe"
    },
    {
        "circuit_name":"Reims-Gueux",
        "races":11,
        "country":"France",
        "lat":49.2542,
        "lng":3.93083,
        "alt":"88",
        "firstRace":1950,
        "lastRace":1966,
        "continent":"Europe"
    },
    {
        "circuit_name":"Riverside International Raceway",
        "races":1,
        "country":"USA",
        "lat":33.937,
        "lng":-117.273,
        "alt":"470",
        "firstRace":1960,
        "lastRace":1960,
        "continent":"North America"
    },
    {
        "circuit_name":"Rouen-Les-Essarts",
        "races":5,
        "country":"France",
        "lat":49.3306,
        "lng":1.00458,
        "alt":"81",
        "firstRace":1952,
        "lastRace":1968,
        "continent":"Europe"
    },
    {
        "circuit_name":"Scandinavian Raceway",
        "races":6,
        "country":"Sweden",
        "lat":57.2653,
        "lng":13.6042,
        "alt":"153",
        "firstRace":1973,
        "lastRace":1978,
        "continent":"Europe"
    },
    {
        "circuit_name":"Sebring International Raceway",
        "races":1,
        "country":"USA",
        "lat":27.4547,
        "lng":-81.3483,
        "alt":"18",
        "firstRace":1959,
        "lastRace":1959,
        "continent":"North America"
    },
    {
        "circuit_name":"Sepang International Circuit",
        "races":19,
        "country":"Malaysia",
        "lat":2.76083,
        "lng":101.738,
        "alt":"18",
        "firstRace":1999,
        "lastRace":2017,
        "continent":"Asia"
    },
    {
        "circuit_name":"Shanghai International Circuit",
        "races":16,
        "country":"China",
        "lat":31.3389,
        "lng":121.22,
        "alt":"5",
        "firstRace":2004,
        "lastRace":2019,
        "continent":"Asia"
    },
    {
        "circuit_name":"Silverstone Circuit",
        "races":58,
        "country":"United Kingdom",
        "lat":52.0786,
        "lng":-1.01694,
        "alt":"153",
        "firstRace":1950,
        "lastRace":2023,
        "continent":"Europe"
    },
    {
        "circuit_name":"Sochi Autodrom",
        "races":8,
        "country":"Russia",
        "lat":43.4057,
        "lng":39.9578,
        "alt":"2",
        "firstRace":2014,
        "lastRace":2021,
        "continent":"Europe"
    },
    {
        "circuit_name":"Suzuka Circuit",
        "races":32,
        "country":"Japan",
        "lat":34.8431,
        "lng":136.541,
        "alt":"45",
        "firstRace":1987,
        "lastRace":2022,
        "continent":"Asia"
    },
    {
        "circuit_name":"Valencia Street Circuit",
        "races":5,
        "country":"Spain",
        "lat":39.4589,
        "lng":-0.331667,
        "alt":"4",
        "firstRace":2008,
        "lastRace":2012,
        "continent":"Europe"
    },
    {
        "circuit_name":"Watkins Glen",
        "races":20,
        "country":"USA",
        "lat":42.3369,
        "lng":-76.9272,
        "alt":"485",
        "firstRace":1961,
        "lastRace":1980,
        "continent":"North America"
    },
    {
        "circuit_name":"Yas Marina Circuit",
        "races":14,
        "country":"United Arab Emirates",
        "lat":24.4672,
        "lng":54.6031,
        "alt":"3",
        "firstRace":2009,
        "lastRace":2022,
        "continent":"Asia"
    },
    {
        "circuit_name":"Zeltweg",
        "races":1,
        "country":"Austria",
        "lat":47.2039,
        "lng":14.7478,
        "alt":"676",
        "firstRace":1964,
        "lastRace":1964,
        "continent":"Europe"
    },
    {
        "circuit_name":"Zolder",
        "races":10,
        "country":"Belgium",
        "lat":50.9894,
        "lng":5.25694,
        "alt":"36",
        "firstRace":1973,
        "lastRace":1984,
        "continent":"Europe"
    }
]